{"_id": "18386_crai_delivery", "geo_point": {"postal_code": "10040", "city": "Leini'", "long": "125.915131", "lat": "-68.6582495", "address": "Borgo Abbagnale 225", "state_code": "TO", "country_code": "IT"}, "last_updated": "2023-05-19T15:45:59.333000", "market": "crai", "meta": null, "name": "crai - Leini' - Borgo Abbagnale 225", "scrape_parameters": {"_id": "18386_crai_delivery", "store_id": 18386}, "service": "delivery", "store_id": 18386, "last_scraped": "2023-05-19T15:45:59.410000"}{"_id": "74503_crai_delivery", "geo_point": {"postal_code": "86016", "city": "Riccia", "long": "-125.278325", "lat": "-20.797448", "address": "Incrocio Migliaccio 2", "state_code": "CB", "country_code": "IT"}, "last_updated": "2023-05-19T15:45:59.333000", "market": "crai", "meta": null, "name": "crai - Riccia - Incrocio Migliaccio 2", "scrape_parameters": {"_id": "74503_crai_delivery", "store_id": 74503}, "service": "delivery", "store_id": 74503, "last_scraped": "2023-05-19T15:45:59.436000"}{"_id": "42506_crai_delivery", "geo_point": {"postal_code": "04100", "city": "Borgo Isonzo", "long": "-150.822491", "lat": "-6.7097675", "address": "Contrada Ludovisi 7", "state_code": "LT", "country_code": "IT"}, "last_updated": "2023-05-19T15:45:59.333000", "market": "crai", "meta": null, "name": "crai - Borgo Isonzo - Contrada Ludovisi 7", "scrape_parameters": {"_id": "42506_crai_delivery", "store_id": 42506}, "service": "delivery", "store_id": 42506, "last_scraped": "2023-05-19T15:45:59.461000"}{"_id": "21943_crai_pickup", "geo_point": {"postal_code": "23014", "city": "Delebio", "long": "145.952155", "lat": "-15.661092", "address": "Canale Desio 6", "state_code": "SO", "country_code": "IT"}, "last_updated": "2023-05-19T15:45:59.333000", "market": "crai", "meta": null, "name": "crai - Delebio - Canale Desio 6", "scrape_parameters": {"_id": "21943_crai_pickup", "store_id": 21943}, "service": "pickup", "store_id": 21943, "last_scraped": "2023-05-19T15:45:59.486000"}{"_id": "48769_crai_delivery", "geo_point": {"postal_code": "15059", "city": "Volpedo", "long": "-41.249446", "lat": "17.076619", "address": "Contrada Giacomo 66", "state_code": "AL", "country_code": "IT"}, "last_updated": "2023-05-19T15:45:59.333000", "market": "crai", "meta": null, "name": "crai - Volpedo - Contrada Giacomo 66", "scrape_parameters": {"_id": "48769_crai_delivery", "store_id": 48769}, "service": "delivery", "store_id": 48769, "last_scraped": "2023-05-19T15:45:59.512000"}{"_id": "87056_crai_delivery", "geo_point": {"postal_code": "05029", "city": "San Gemini", "long": "136.240531", "lat": "77.3803585", "address": "Borgo Sabatino 15", "state_code": "TR", "country_code": "IT"}, "last_updated": "2023-05-19T15:45:59.333000", "market": "crai", "meta": null, "name": "crai - San Gemini - Borgo Sabatino 15", "scrape_parameters": {"_id": "87056_crai_delivery", "store_id": 87056}, "service": "delivery", "store_id": 87056, "last_scraped": "2023-05-19T15:45:59.541000"}{"_id": "84861_crai_pickup", "geo_point": {"postal_code": "71024", "city": "Candela", "long": "68.277012", "lat": "-51.9337235", "address": "Strada Alessia 33", "state_code": "FG", "country_code": "IT"}, "last_updated": "2023-05-19T15:45:59.333000", "market": "crai", "meta": null, "name": "crai - Candela - Strada Alessia 33", "scrape_parameters": {"_id": "84861_crai_pickup", "store_id": 84861}, "service": "pickup", "store_id": 84861, "last_scraped": "2023-05-19T15:45:59.568000"}{"_id": "99362_crai_delivery", "geo_point": {"postal_code": "88062", "city": "Novalba", "long": "-96.165923", "lat": "-2.390074", "address": "Piazza Amadeo 75", "state_code": "CZ", "country_code": "IT"}, "last_updated": "2023-05-19T15:45:59.333000", "market": "crai", "meta": null, "name": "crai - Novalba - Piazza Amadeo 75", "scrape_parameters": {"_id": "99362_crai_delivery", "store_id": 99362}, "service": "delivery", "store_id": 99362, "last_scraped": "2023-05-19T15:45:59.594000"}{"_id": "39741_crai_delivery", "geo_point": {"postal_code": "39026", "city": "Prato Allo Stelvio", "long": "0.328076", "lat": "84.815233", "address": "Piazza Coriolano 7", "state_code": "BZ", "country_code": "IT"}, "last_updated": "2023-05-19T15:45:59.333000", "market": "crai", "meta": null, "name": "crai - Prato Allo Stelvio - Piazza Coriolano 7", "scrape_parameters": {"_id": "39741_crai_delivery", "store_id": 39741}, "service": "delivery", "store_id": 39741, "last_scraped": "2023-05-19T15:45:59.619000"}{"_id": "22989_crai_pickup", "geo_point": {"postal_code": "67019", "city": "Scoppito", "long": "168.056459", "lat": "69.824400", "address": "Contrada Dionigi 716", "state_code": "AQ", "country_code": "IT"}, "last_updated": "2023-05-19T15:45:59.333000", "market": "crai", "meta": null, "name": "crai - Scoppito - Contrada Dionigi 716", "scrape_parameters": {"_id": "22989_crai_pickup", "store_id": 22989}, "service": "pickup", "store_id": 22989, "last_scraped": "2023-05-19T15:45:59.646000"}{"_id": "13254_crai_delivery", "geo_point": {"postal_code": "26843", "city": "Castelnuovo Bocca D'Adda", "long": "-3.526719", "lat": "-76.141074", "address": "Vicolo Ammaniti 84", "state_code": "LO", "country_code": "IT"}, "last_updated": "2023-05-19T15:45:59.333000", "market": "crai", "meta": null, "name": "crai - Castelnuovo Bocca D'Adda - Vicolo Ammaniti 84", "scrape_parameters": {"_id": "13254_crai_delivery", "store_id": 13254}, "service": "delivery", "store_id": 13254, "last_scraped": "2023-05-19T15:45:59.671000"}{"_id": "88996_crai_pickup", "geo_point": {"postal_code": "12068", "city": "Narzole", "long": "172.208412", "lat": "-66.970294", "address": "Stretto Casellati 242", "state_code": "CN", "country_code": "IT"}, "last_updated": "2023-05-19T15:45:59.333000", "market": "crai", "meta": null, "name": "crai - Narzole - Stretto Casellati 242", "scrape_parameters": {"_id": "88996_crai_pickup", "store_id": 88996}, "service": "pickup", "store_id": 88996, "last_scraped": "2023-05-19T15:45:59.699000"}{"_id": "96899_crai_delivery", "geo_point": {"postal_code": "80066", "city": "Seiano", "long": "-51.389384", "lat": "-11.849922", "address": "Piazza Pizzamano 421", "state_code": "NA", "country_code": "IT"}, "last_updated": "2023-05-19T15:45:59.333000", "market": "crai", "meta": null, "name": "crai - Seiano - Piazza Pizzamano 421", "scrape_parameters": {"_id": "96899_crai_delivery", "store_id": 96899}, "service": "delivery", "store_id": 96899, "last_scraped": "2023-05-19T15:45:59.723000"}{"_id": "41689_crai_delivery", "geo_point": {"postal_code": "84021", "city": "Tufariello", "long": "154.357917", "lat": "-28.603000", "address": "Piazza Ornella 258", "state_code": "SA", "country_code": "IT"}, "last_updated": "2023-05-19T15:45:59.333000", "market": "crai", "meta": null, "name": "crai - Tufariello - Piazza Ornella 258", "scrape_parameters": {"_id": "41689_crai_delivery", "store_id": 41689}, "service": "delivery", "store_id": 41689, "last_scraped": "2023-05-19T15:45:59.749000"}{"_id": "6361_crai_delivery", "geo_point": {"postal_code": "17043", "city": "Carcare", "long": "-96.981414", "lat": "89.306676", "address": "Rotonda Ferretti 661", "state_code": "SV", "country_code": "IT"}, "last_updated": "2023-05-19T15:45:59.333000", "market": "crai", "meta": null, "name": "crai - Carcare - Rotonda Ferretti 661", "scrape_parameters": {"_id": "6361_crai_delivery", "store_id": 6361}, "service": "delivery", "store_id": 6361, "last_scraped": "2023-05-19T15:45:59.778000"}{"_id": "32677_crai_pickup", "geo_point": {"postal_code": "67017", "city": "Pizzoli", "long": "174.219997", "lat": "-27.405668", "address": "Contrada Pier 26", "state_code": "AQ", "country_code": "IT"}, "last_updated": "2023-05-19T15:45:59.333000", "market": "crai", "meta": null, "name": "crai - Pizzoli - Contrada Pier 26", "scrape_parameters": {"_id": "32677_crai_pickup", "store_id": 32677}, "service": "pickup", "store_id": 32677, "last_scraped": "2023-05-19T15:45:59.806000"}{"_id": "40267_crai_pickup", "geo_point": {"postal_code": "24040", "city": "Lallio", "long": "-44.096949", "lat": "70.138307", "address": "Strada Carmelo 6", "state_code": "BG", "country_code": "IT"}, "last_updated": "2023-05-19T15:45:59.333000", "market": "crai", "meta": null, "name": "crai - Lallio - Strada Carmelo 6", "scrape_parameters": {"_id": "40267_crai_pickup", "store_id": 40267}, "service": "pickup", "store_id": 40267, "last_scraped": "2023-05-19T15:45:59.834000"}{"_id": "43044_crai_delivery", "geo_point": {"postal_code": "20072", "city": "Pieve Emanuele", "long": "30.594589", "lat": "-61.077614", "address": "Contrada Nordio 54", "state_code": "MI", "country_code": "IT"}, "last_updated": "2023-05-19T15:45:59.333000", "market": "crai", "meta": null, "name": "crai - Pieve Emanuele - Contrada Nordio 54", "scrape_parameters": {"_id": "43044_crai_delivery", "store_id": 43044}, "service": "delivery", "store_id": 43044, "last_scraped": "2023-05-19T15:45:59.864000"}{"_id": "42303_crai_pickup", "geo_point": {"postal_code": "28050", "city": "Pombia", "long": "-36.856383", "lat": "25.772382", "address": "Viale Giuliana 661", "state_code": "NO", "country_code": "IT"}, "last_updated": "2023-05-19T15:45:59.333000", "market": "crai", "meta": null, "name": "crai - Pombia - Viale Giuliana 661", "scrape_parameters": {"_id": "42303_crai_pickup", "store_id": 42303}, "service": "pickup", "store_id": 42303, "last_scraped": "2023-05-19T15:45:59.895000"}{"_id": "49216_crai_delivery", "geo_point": {"postal_code": "47018", "city": "Santa Sofia", "long": "104.807169", "lat": "-2.1935635", "address": "Contrada Onio 88", "state_code": "FC", "country_code": "IT"}, "last_updated": "2023-05-19T15:45:59.333000", "market": "crai", "meta": null, "name": "crai - Santa Sofia - Contrada Onio 88", "scrape_parameters": {"_id": "49216_crai_delivery", "store_id": 49216}, "service": "delivery", "store_id": 49216, "last_scraped": "2023-05-19T15:45:59.926000"}{"_id": "97945_crai_pickup", "geo_point": {"postal_code": "67053", "city": "Pescocanale", "long": "17.553147", "lat": "-59.839282", "address": "Strada Daria 28", "state_code": "AQ", "country_code": "IT"}, "last_updated": "2023-05-19T15:45:59.333000", "market": "crai", "meta": null, "name": "crai - Pescocanale - Strada Daria 28", "scrape_parameters": {"_id": "97945_crai_pickup", "store_id": 97945}, "service": "pickup", "store_id": 97945, "last_scraped": "2023-05-19T15:45:59.957000"}{"_id": "11930_crai_delivery", "geo_point": {"postal_code": "16028", "city": "Rovegno", "long": "-73.211807", "lat": "72.745801", "address": "Canale Serafina 48", "state_code": "GE", "country_code": "IT"}, "last_updated": "2023-05-19T15:45:59.333000", "market": "crai", "meta": null, "name": "crai - Rovegno - Canale Serafina 48", "scrape_parameters": {"_id": "11930_crai_delivery", "store_id": 11930}, "service": "delivery", "store_id": 11930, "last_scraped": "2023-05-19T15:45:59.992000"}{"_id": "40527_crai_delivery", "geo_point": {"postal_code": "32036", "city": "Bribano", "long": "49.289736", "lat": "-52.430099", "address": "Vicolo Bettina 950", "state_code": "BL", "country_code": "IT"}, "last_updated": "2023-05-19T15:45:59.333000", "market": "crai", "meta": null, "name": "crai - Bribano - Vicolo Bettina 950", "scrape_parameters": {"_id": "40527_crai_delivery", "store_id": 40527}, "service": "delivery", "store_id": 40527, "last_scraped": "2023-05-19T15:46:00.027000"}{"_id": "73859_crai_delivery", "geo_point": {"postal_code": "41056", "city": "Garofano", "long": "174.379527", "lat": "-42.073432", "address": "Contrada Brunelleschi 63", "state_code": "MO", "country_code": "IT"}, "last_updated": "2023-05-19T15:45:59.333000", "market": "crai", "meta": null, "name": "crai - Garofano - Contrada Brunelleschi 63", "scrape_parameters": {"_id": "73859_crai_delivery", "store_id": 73859}, "service": "delivery", "store_id": 73859, "last_scraped": "2023-05-19T15:46:00.057000"}{"_id": "25333_crai_pickup", "geo_point": {"postal_code": "10030", "city": "Tina", "long": "-12.476806", "lat": "30.818676", "address": "Borgo Castiglione 530", "state_code": "TO", "country_code": "IT"}, "last_updated": "2023-05-19T15:45:59.333000", "market": "crai", "meta": null, "name": "crai - Tina - Borgo Castiglione 530", "scrape_parameters": {"_id": "25333_crai_pickup", "store_id": 25333}, "service": "pickup", "store_id": 25333, "last_scraped": "2023-05-19T15:46:00.087000"}{"_id": "79293_crai_pickup", "geo_point": {"postal_code": "89022", "city": "Cittanova", "long": "35.368154", "lat": "62.4333825", "address": "Strada Ugo 20", "state_code": "RC", "country_code": "IT"}, "last_updated": "2023-05-19T15:45:59.333000", "market": "crai", "meta": null, "name": "crai - Cittanova - Strada Ugo 20", "scrape_parameters": {"_id": "79293_crai_pickup", "store_id": 79293}, "service": "pickup", "store_id": 79293, "last_scraped": "2023-05-19T15:46:00.121000"}{"_id": "30523_crai_pickup", "geo_point": {"postal_code": "34100", "city": "Trieste", "long": "65.785642", "lat": "-42.970224", "address": "Contrada Daniele 19", "state_code": "TS", "country_code": "IT"}, "last_updated": "2023-05-19T15:45:59.333000", "market": "crai", "meta": null, "name": "crai - Trieste - Contrada Daniele 19", "scrape_parameters": {"_id": "30523_crai_pickup", "store_id": 30523}, "service": "pickup", "store_id": 30523, "last_scraped": "2023-05-19T15:46:00.153000"}{"_id": "77788_crai_pickup", "geo_point": {"postal_code": "24041", "city": "Brembate", "long": "-125.245609", "lat": "-87.2515795", "address": "Strada Greco 0", "state_code": "BG", "country_code": "IT"}, "last_updated": "2023-05-19T15:45:59.333000", "market": "crai", "meta": null, "name": "crai - Brembate - Strada Greco 0", "scrape_parameters": {"_id": "77788_crai_pickup", "store_id": 77788}, "service": "pickup", "store_id": 77788, "last_scraped": "2023-05-19T15:46:00.184000"}{"_id": "49108_crai_pickup", "geo_point": {"postal_code": "56035", "city": "Cevoli", "long": "-93.564253", "lat": "-65.167030", "address": "Borgo Gilberto 76", "state_code": "PI", "country_code": "IT"}, "last_updated": "2023-05-19T15:45:59.333000", "market": "crai", "meta": null, "name": "crai - Cevoli - Borgo Gilberto 76", "scrape_parameters": {"_id": "49108_crai_pickup", "store_id": 49108}, "service": "pickup", "store_id": 49108, "last_scraped": "2023-05-19T15:46:00.218000"}{"_id": "26740_crai_delivery", "geo_point": {"postal_code": "52026", "city": "Faella", "long": "-66.166915", "lat": "-31.395464", "address": "Viale Falier 30", "state_code": "AR", "country_code": "IT"}, "last_updated": "2023-05-19T15:45:59.333000", "market": "crai", "meta": null, "name": "crai - Faella - Viale Falier 30", "scrape_parameters": {"_id": "26740_crai_delivery", "store_id": 26740}, "service": "delivery", "store_id": 26740, "last_scraped": "2023-05-19T15:46:00.250000"}{"_id": "40805_crai_pickup", "geo_point": {"postal_code": "29016", "city": "Cortemaggiore", "long": "-95.657516", "lat": "36.478371", "address": "Rotonda Cicala 85", "state_code": "PC", "country_code": "IT"}, "last_updated": "2023-05-19T15:45:59.333000", "market": "crai", "meta": null, "name": "crai - Cortemaggiore - Rotonda Cicala 85", "scrape_parameters": {"_id": "40805_crai_pickup", "store_id": 40805}, "service": "pickup", "store_id": 40805, "last_scraped": "2023-05-19T15:46:00.286000"}{"_id": "57898_crai_delivery", "geo_point": {"postal_code": "75017", "city": "Salandra", "long": "-175.857002", "lat": "-37.5307495", "address": "Piazza Fabrizi 48", "state_code": "MT", "country_code": "IT"}, "last_updated": "2023-05-19T15:45:59.333000", "market": "crai", "meta": null, "name": "crai - Salandra - Piazza Fabrizi 48", "scrape_parameters": {"_id": "57898_crai_delivery", "store_id": 57898}, "service": "delivery", "store_id": 57898, "last_scraped": "2023-05-19T15:46:00.321000"}{"_id": "34884_crai_pickup", "geo_point": {"postal_code": "38052", "city": "Caldonazzo", "long": "5.028998", "lat": "-88.495573", "address": "Canale Serafina 59", "state_code": "TN", "country_code": "IT"}, "last_updated": "2023-05-19T15:45:59.333000", "market": "crai", "meta": null, "name": "crai - Caldonazzo - Canale Serafina 59", "scrape_parameters": {"_id": "34884_crai_pickup", "store_id": 34884}, "service": "pickup", "store_id": 34884, "last_scraped": "2023-05-19T15:46:00.357000"}{"_id": "97641_crai_pickup", "geo_point": {"postal_code": "16137", "city": "Staglieno", "long": "-162.319101", "lat": "87.149547", "address": "Strada Federica 56", "state_code": "GE", "country_code": "IT"}, "last_updated": "2023-05-19T15:45:59.333000", "market": "crai", "meta": null, "name": "crai - Staglieno - Strada Federica 56", "scrape_parameters": {"_id": "97641_crai_pickup", "store_id": 97641}, "service": "pickup", "store_id": 97641, "last_scraped": "2023-05-19T15:46:00.391000"}{"_id": "22261_crai_delivery", "geo_point": {"postal_code": "10044", "city": "Pianezza", "long": "-147.370014", "lat": "16.871904", "address": "Piazza Comboni 821", "state_code": "TO", "country_code": "IT"}, "last_updated": "2023-05-19T15:45:59.333000", "market": "crai", "meta": null, "name": "crai - Pianezza - Piazza Comboni 821", "scrape_parameters": {"_id": "22261_crai_delivery", "store_id": 22261}, "service": "delivery", "store_id": 22261, "last_scraped": "2023-05-19T15:46:00.428000"}{"_id": "77632_crai_pickup", "geo_point": {"postal_code": "01014", "city": "Pescia Romana", "long": "-151.391198", "lat": "-62.677134", "address": "Vicolo Camillo 76", "state_code": "VT", "country_code": "IT"}, "last_updated": "2023-05-19T15:45:59.333000", "market": "crai", "meta": null, "name": "crai - Pescia Romana - Vicolo Camillo 76", "scrape_parameters": {"_id": "77632_crai_pickup", "store_id": 77632}, "service": "pickup", "store_id": 77632, "last_scraped": "2023-05-19T15:46:00.464000"}{"_id": "74772_crai_delivery", "geo_point": {"postal_code": "53047", "city": "Sarteano", "long": "113.036748", "lat": "16.1503625", "address": "Contrada Mengolo 17", "state_code": "SI", "country_code": "IT"}, "last_updated": "2023-05-19T15:45:59.333000", "market": "crai", "meta": null, "name": "crai - Sarteano - Contrada Mengolo 17", "scrape_parameters": {"_id": "74772_crai_delivery", "store_id": 74772}, "service": "delivery", "store_id": 74772, "last_scraped": "2023-05-19T15:46:00.502000"}{"_id": "79371_crai_delivery", "geo_point": {"postal_code": "13043", "city": "Cigliano", "long": "141.756654", "lat": "-46.5009255", "address": "Piazza Amanda 14", "state_code": "VC", "country_code": "IT"}, "last_updated": "2023-05-19T15:45:59.333000", "market": "crai", "meta": null, "name": "crai - Cigliano - Piazza Amanda 14", "scrape_parameters": {"_id": "79371_crai_delivery", "store_id": 79371}, "service": "delivery", "store_id": 79371, "last_scraped": "2023-05-19T15:46:00.538000"}{"_id": "19162_crai_pickup", "geo_point": {"postal_code": "22027", "city": "Ronago", "long": "161.585802", "lat": "15.0964015", "address": "Vicolo Liana 154", "state_code": "CO", "country_code": "IT"}, "last_updated": "2023-05-19T15:45:59.333000", "market": "crai", "meta": null, "name": "crai - Ronago - Vicolo Liana 154", "scrape_parameters": {"_id": "19162_crai_pickup", "store_id": 19162}, "service": "pickup", "store_id": 19162, "last_scraped": "2023-05-19T15:46:00.573000"}{"_id": "33211_crai_pickup", "geo_point": {"postal_code": "72024", "city": "San Cosimo Alla Macchia", "long": "40.955462", "lat": "-53.142721", "address": "Vicolo Corcos 5", "state_code": "BR", "country_code": "IT"}, "last_updated": "2023-05-19T15:45:59.333000", "market": "crai", "meta": null, "name": "crai - San Cosimo Alla Macchia - Vicolo Corcos 5", "scrape_parameters": {"_id": "33211_crai_pickup", "store_id": 33211}, "service": "pickup", "store_id": 33211, "last_scraped": "2023-05-19T15:46:00.615000"}{"_id": "46884_crai_delivery", "geo_point": {"postal_code": "65024", "city": "Manoppello Stazione", "long": "-108.644836", "lat": "-65.640860", "address": "Strada Temistocle 17", "state_code": "PE", "country_code": "IT"}, "last_updated": "2023-05-19T15:45:59.333000", "market": "crai", "meta": null, "name": "crai - Manoppello Stazione - Strada Temistocle 17", "scrape_parameters": {"_id": "46884_crai_delivery", "store_id": 46884}, "service": "delivery", "store_id": 46884, "last_scraped": "2023-05-19T15:46:00.651000"}{"_id": "60291_crai_delivery", "geo_point": {"postal_code": "93012", "city": "Gela", "long": "69.506679", "lat": "25.2506675", "address": "Viale Gravina 38", "state_code": "CL", "country_code": "IT"}, "last_updated": "2023-05-19T15:45:59.333000", "market": "crai", "meta": null, "name": "crai - Gela - Viale Gravina 38", "scrape_parameters": {"_id": "60291_crai_delivery", "store_id": 60291}, "service": "delivery", "store_id": 60291, "last_scraped": "2023-05-19T15:46:00.689000"}{"_id": "29109_crai_delivery", "geo_point": {"postal_code": "30022", "city": "Ceggia", "long": "-163.622819", "lat": "80.5977575", "address": "Piazza Scarpetta 33", "state_code": "VE", "country_code": "IT"}, "last_updated": "2023-05-19T15:45:59.333000", "market": "crai", "meta": null, "name": "crai - Ceggia - Piazza Scarpetta 33", "scrape_parameters": {"_id": "29109_crai_delivery", "store_id": 29109}, "service": "delivery", "store_id": 29109, "last_scraped": "2023-05-19T15:46:00.728000"}{"_id": "18102_crai_pickup", "geo_point": {"postal_code": "84035", "city": "Polla", "long": "-21.834269", "lat": "77.8273085", "address": "Contrada Uberto 814", "state_code": "SA", "country_code": "IT"}, "last_updated": "2023-05-19T15:45:59.333000", "market": "crai", "meta": null, "name": "crai - Polla - Contrada Uberto 814", "scrape_parameters": {"_id": "18102_crai_pickup", "store_id": 18102}, "service": "pickup", "store_id": 18102, "last_scraped": "2023-05-19T15:46:00.767000"}{"_id": "66335_crai_pickup", "geo_point": {"postal_code": "10124", "city": "Torino", "long": "161.564424", "lat": "-39.2366185", "address": "Canale Fiamma 68", "state_code": "TO", "country_code": "IT"}, "last_updated": "2023-05-19T15:45:59.333000", "market": "crai", "meta": null, "name": "crai - Torino - Canale Fiamma 68", "scrape_parameters": {"_id": "66335_crai_pickup", "store_id": 66335}, "service": "pickup", "store_id": 66335, "last_scraped": "2023-05-19T15:46:00.805000"}{"_id": "81536_crai_pickup", "geo_point": {"postal_code": "00049", "city": "Velletri", "long": "-159.246988", "lat": "-44.5078615", "address": "Strada Federigo 240", "state_code": "RM", "country_code": "IT"}, "last_updated": "2023-05-19T15:45:59.333000", "market": "crai", "meta": null, "name": "crai - Velletri - Strada Federigo 240", "scrape_parameters": {"_id": "81536_crai_pickup", "store_id": 81536}, "service": "pickup", "store_id": 81536, "last_scraped": "2023-05-19T15:46:00.847000"}{"_id": "68929_crai_pickup", "geo_point": {"postal_code": "55014", "city": "Marlia", "long": "4.593779", "lat": "38.802841", "address": "Rotonda Liberto 79", "state_code": "LU", "country_code": "IT"}, "last_updated": "2023-05-19T15:45:59.333000", "market": "crai", "meta": null, "name": "crai - Marlia - Rotonda Liberto 79", "scrape_parameters": {"_id": "68929_crai_pickup", "store_id": 68929}, "service": "pickup", "store_id": 68929, "last_scraped": "2023-05-19T15:46:00.891000"}{"_id": "95817_crai_pickup", "geo_point": {"postal_code": "87012", "city": "Castrovillari", "long": "110.440673", "lat": "83.341569", "address": "Via Cardano 81", "state_code": "CS", "country_code": "IT"}, "last_updated": "2023-05-19T15:45:59.333000", "market": "crai", "meta": null, "name": "crai - Castrovillari - Via Cardano 81", "scrape_parameters": {"_id": "95817_crai_pickup", "store_id": 95817}, "service": "pickup", "store_id": 95817, "last_scraped": "2023-05-19T15:46:00.944000"}{"_id": "19782_crai_pickup", "geo_point": {"postal_code": "41012", "city": "Migliarina", "long": "-98.545977", "lat": "80.897300", "address": "Borgo Luca 9", "state_code": "MO", "country_code": "IT"}, "last_updated": "2023-05-19T15:45:59.333000", "market": "crai", "meta": null, "name": "crai - Migliarina - Borgo Luca 9", "scrape_parameters": {"_id": "19782_crai_pickup", "store_id": 19782}, "service": "pickup", "store_id": 19782, "last_scraped": "2023-05-19T15:46:00.989000"}{"_id": "78654_crai_delivery", "geo_point": {"postal_code": "28818", "city": "Premeno", "long": "-88.903470", "lat": "-85.601566", "address": "Via Gastone 499", "state_code": "VB", "country_code": "IT"}, "last_updated": "2023-05-19T15:45:59.333000", "market": "crai", "meta": null, "name": "crai - Premeno - Via Gastone 499", "scrape_parameters": {"_id": "78654_crai_delivery", "store_id": 78654}, "service": "delivery", "store_id": 78654, "last_scraped": "2023-05-19T15:46:01.031000"}{"_id": "80887_lidl_pickup", "geo_point": {"postal_code": "20815", "city": "Cogliate", "long": "-56.278203", "lat": "9.680043", "address": "Viale Sole 5", "state_code": "MB", "country_code": "IT"}, "last_updated": "2023-05-19T15:45:59.361000", "market": "lidl", "meta": null, "name": "lidl - Cogliate - Viale Sole 5", "scrape_parameters": {"_id": "80887_lidl_pickup", "store_id": 80887}, "service": "pickup", "store_id": 80887, "last_scraped": "2023-05-19T15:46:01.077000"}{"_id": "5670_lidl_pickup", "geo_point": {"postal_code": "18019", "city": "Vallecrosia", "long": "-39.919585", "lat": "1.0268645", "address": "Piazza Satriani 20", "state_code": "IM", "country_code": "IT"}, "last_updated": "2023-05-19T15:45:59.361000", "market": "lidl", "meta": null, "name": "lidl - Vallecrosia - Piazza Satriani 20", "scrape_parameters": {"_id": "5670_lidl_pickup", "store_id": 5670}, "service": "pickup", "store_id": 5670, "last_scraped": "2023-05-19T15:46:01.126000"}{"_id": "8884_lidl_pickup", "geo_point": {"postal_code": "56011", "city": "Gabella", "long": "40.085551", "lat": "78.8276245", "address": "Strada Gioberti 51", "state_code": "PI", "country_code": "IT"}, "last_updated": "2023-05-19T15:45:59.361000", "market": "lidl", "meta": null, "name": "lidl - Gabella - Strada Gioberti 51", "scrape_parameters": {"_id": "8884_lidl_pickup", "store_id": 8884}, "service": "pickup", "store_id": 8884, "last_scraped": "2023-05-19T15:46:01.173000"}{"_id": "87252_lidl_pickup", "geo_point": {"postal_code": "00034", "city": "Colleferro Scalo", "long": "29.390915", "lat": "-89.343705", "address": "Viale Gustavo 74", "state_code": "RM", "country_code": "IT"}, "last_updated": "2023-05-19T15:45:59.361000", "market": "lidl", "meta": null, "name": "lidl - Colleferro Scalo - Viale Gustavo 74", "scrape_parameters": {"_id": "87252_lidl_pickup", "store_id": 87252}, "service": "pickup", "store_id": 87252, "last_scraped": "2023-05-19T15:46:01.218000"}{"_id": "12701_lidl_pickup", "geo_point": {"postal_code": "12089", "city": "Villanova Mondovi'", "long": "80.327798", "lat": "-66.7359635", "address": "Viale Melina 25", "state_code": "CN", "country_code": "IT"}, "last_updated": "2023-05-19T15:45:59.361000", "market": "lidl", "meta": null, "name": "lidl - Villanova Mondovi' - Viale Melina 25", "scrape_parameters": {"_id": "12701_lidl_pickup", "store_id": 12701}, "service": "pickup", "store_id": 12701, "last_scraped": "2023-05-19T15:46:01.268000"}{"_id": "61412_lidl_delivery", "geo_point": {"postal_code": "13031", "city": "Arborio", "long": "-104.293071", "lat": "41.274703", "address": "Strada Falier 1", "state_code": "VC", "country_code": "IT"}, "last_updated": "2023-05-19T15:45:59.361000", "market": "lidl", "meta": null, "name": "lidl - Arborio - Strada Falier 1", "scrape_parameters": {"_id": "61412_lidl_delivery", "store_id": 61412}, "service": "delivery", "store_id": 61412, "last_scraped": "2023-05-19T15:46:01.318000"}{"_id": "98856_lidl_pickup", "geo_point": {"postal_code": "29016", "city": "Cortemaggiore", "long": "-93.853750", "lat": "79.735364", "address": "Viale Venancio 5", "state_code": "PC", "country_code": "IT"}, "last_updated": "2023-05-19T15:45:59.361000", "market": "lidl", "meta": null, "name": "lidl - Cortemaggiore - Viale Venancio 5", "scrape_parameters": {"_id": "98856_lidl_pickup", "store_id": 98856}, "service": "pickup", "store_id": 98856, "last_scraped": "2023-05-19T15:46:01.371000"}{"_id": "99095_lidl_delivery", "geo_point": {"postal_code": "28010", "city": "Bolzano Novarese", "long": "-40.343768", "lat": "-79.705403", "address": "Stretto Zanichelli 8", "state_code": "NO", "country_code": "IT"}, "last_updated": "2023-05-19T15:45:59.361000", "market": "lidl", "meta": null, "name": "lidl - Bolzano Novarese - Stretto Zanichelli 8", "scrape_parameters": {"_id": "99095_lidl_delivery", "store_id": 99095}, "service": "delivery", "store_id": 99095, "last_scraped": "2023-05-19T15:46:01.417000"}{"_id": "62899_lidl_delivery", "geo_point": {"postal_code": "00026", "city": "Licenza", "long": "-36.059262", "lat": "57.3251985", "address": "Contrada Lidia 830", "state_code": "RM", "country_code": "IT"}, "last_updated": "2023-05-19T15:45:59.361000", "market": "lidl", "meta": null, "name": "lidl - Licenza - Contrada Lidia 830", "scrape_parameters": {"_id": "62899_lidl_delivery", "store_id": 62899}, "service": "delivery", "store_id": 62899, "last_scraped": "2023-05-19T15:46:01.468000"}{"_id": "65037_lidl_delivery", "geo_point": {"postal_code": "63811", "city": "Bivio Cascinare", "long": "-105.011146", "lat": "45.390669", "address": "Vicolo Maurilio 29", "state_code": "FM", "country_code": "IT"}, "last_updated": "2023-05-19T15:45:59.361000", "market": "lidl", "meta": null, "name": "lidl - Bivio Cascinare - Vicolo Maurilio 29", "scrape_parameters": {"_id": "65037_lidl_delivery", "store_id": 65037}, "service": "delivery", "store_id": 65037, "last_scraped": "2023-05-19T15:46:01.516000"}{"_id": "74706_lidl_pickup", "geo_point": {"postal_code": "47842", "city": "Pianventena", "long": "57.977064", "lat": "68.209731", "address": "Piazza Silvio 12", "state_code": "RN", "country_code": "IT"}, "last_updated": "2023-05-19T15:45:59.361000", "market": "lidl", "meta": null, "name": "lidl - Pianventena - Piazza Silvio 12", "scrape_parameters": {"_id": "74706_lidl_pickup", "store_id": 74706}, "service": "pickup", "store_id": 74706, "last_scraped": "2023-05-19T15:46:01.568000"}{"_id": "48363_lidl_pickup", "geo_point": {"postal_code": "90144", "city": "Palermo", "long": "-158.114814", "lat": "27.0174995", "address": "Piazza Vincenza 53", "state_code": "PA", "country_code": "IT"}, "last_updated": "2023-05-19T15:45:59.361000", "market": "lidl", "meta": null, "name": "lidl - Palermo - Piazza Vincenza 53", "scrape_parameters": {"_id": "48363_lidl_pickup", "store_id": 48363}, "service": "pickup", "store_id": 48363, "last_scraped": "2023-05-19T15:46:01.616000"}{"_id": "90420_lidl_delivery", "geo_point": {"postal_code": "20832", "city": "Desio", "long": "30.903004", "lat": "57.9102335", "address": "Canale Barracco 28", "state_code": "MB", "country_code": "IT"}, "last_updated": "2023-05-19T15:45:59.361000", "market": "lidl", "meta": null, "name": "lidl - Desio - Canale Barracco 28", "scrape_parameters": {"_id": "90420_lidl_delivery", "store_id": 90420}, "service": "delivery", "store_id": 90420, "last_scraped": "2023-05-19T15:46:01.670000"}{"_id": "86085_lidl_pickup", "geo_point": {"postal_code": "12023", "city": "Caraglio", "long": "164.476936", "lat": "38.5708385", "address": "Stretto Romiti 8", "state_code": "CN", "country_code": "IT"}, "last_updated": "2023-05-19T15:45:59.361000", "market": "lidl", "meta": null, "name": "lidl - Caraglio - Stretto Romiti 8", "scrape_parameters": {"_id": "86085_lidl_pickup", "store_id": 86085}, "service": "pickup", "store_id": 86085, "last_scraped": "2023-05-19T15:46:01.725000"}{"_id": "92334_lidl_pickup", "geo_point": {"postal_code": "60121", "city": "Ancona", "long": "-107.159549", "lat": "44.213490", "address": "Canale Ubaldo 36", "state_code": "AN", "country_code": "IT"}, "last_updated": "2023-05-19T15:45:59.361000", "market": "lidl", "meta": null, "name": "lidl - Ancona - Canale Ubaldo 36", "scrape_parameters": {"_id": "92334_lidl_pickup", "store_id": 92334}, "service": "pickup", "store_id": 92334, "last_scraped": "2023-05-19T15:46:01.784000"}{"_id": "3075_lidl_pickup", "geo_point": {"postal_code": "88047", "city": "Nocera Terinese", "long": "-47.500383", "lat": "44.418921", "address": "Via Leonardi 779", "state_code": "CZ", "country_code": "IT"}, "last_updated": "2023-05-19T15:45:59.361000", "market": "lidl", "meta": null, "name": "lidl - Nocera Terinese - Via Leonardi 779", "scrape_parameters": {"_id": "3075_lidl_pickup", "store_id": 3075}, "service": "pickup", "store_id": 3075, "last_scraped": "2023-05-19T15:46:01.844000"}{"_id": "36102_lidl_delivery", "geo_point": {"postal_code": "95043", "city": "Militello In Val Di Catania", "long": "-96.604970", "lat": "-9.511662", "address": "Viale Romeo 30", "state_code": "CT", "country_code": "IT"}, "last_updated": "2023-05-19T15:45:59.361000", "market": "lidl", "meta": null, "name": "lidl - Militello In Val Di Catania - Viale Romeo 30", "scrape_parameters": {"_id": "36102_lidl_delivery", "store_id": 36102}, "service": "delivery", "store_id": 36102, "last_scraped": "2023-05-19T15:46:01.902000"}{"_id": "35203_lidl_pickup", "geo_point": {"postal_code": "59100", "city": "Maliseti", "long": "-18.425959", "lat": "-56.5305555", "address": "Incrocio Antonelli 90", "state_code": "PO", "country_code": "IT"}, "last_updated": "2023-05-19T15:45:59.361000", "market": "lidl", "meta": null, "name": "lidl - Maliseti - Incrocio Antonelli 90", "scrape_parameters": {"_id": "35203_lidl_pickup", "store_id": 35203}, "service": "pickup", "store_id": 35203, "last_scraped": "2023-05-19T15:46:01.964000"}{"_id": "35505_lidl_pickup", "geo_point": {"postal_code": "00059", "city": "Tolfa", "long": "-43.575302", "lat": "50.126442", "address": "Incrocio Eugenia 13", "state_code": "RM", "country_code": "IT"}, "last_updated": "2023-05-19T15:45:59.361000", "market": "lidl", "meta": null, "name": "lidl - Tolfa - Incrocio Eugenia 13", "scrape_parameters": {"_id": "35505_lidl_pickup", "store_id": 35505}, "service": "pickup", "store_id": 35505, "last_scraped": "2023-05-19T15:46:02.020000"}{"_id": "58677_lidl_delivery", "geo_point": {"postal_code": "20865", "city": "Velate", "long": "-20.427440", "lat": "-86.439387", "address": "Rotonda Canil 34", "state_code": "MB", "country_code": "IT"}, "last_updated": "2023-05-19T15:45:59.361000", "market": "lidl", "meta": null, "name": "lidl - Velate - Rotonda Canil 34", "scrape_parameters": {"_id": "58677_lidl_delivery", "store_id": 58677}, "service": "delivery", "store_id": 58677, "last_scraped": "2023-05-19T15:46:02.078000"}{"_id": "89712_lidl_delivery", "geo_point": {"postal_code": "51015", "city": "Uggia", "long": "-93.863094", "lat": "-59.363296", "address": "Piazza Claudia 48", "state_code": "PT", "country_code": "IT"}, "last_updated": "2023-05-19T15:45:59.361000", "market": "lidl", "meta": null, "name": "lidl - Uggia - Piazza Claudia 48", "scrape_parameters": {"_id": "89712_lidl_delivery", "store_id": 89712}, "service": "delivery", "store_id": 89712, "last_scraped": "2023-05-19T15:46:02.142000"}{"_id": "3077_lidl_pickup", "geo_point": {"postal_code": "39028", "city": "Goefla", "long": "-127.503792", "lat": "46.3839805", "address": "Vicolo Valeria 39", "state_code": "BZ", "country_code": "IT"}, "last_updated": "2023-05-19T15:45:59.361000", "market": "lidl", "meta": null, "name": "lidl - Goefla - Vicolo Valeria 39", "scrape_parameters": {"_id": "3077_lidl_pickup", "store_id": 3077}, "service": "pickup", "store_id": 3077, "last_scraped": "2023-05-19T15:46:02.202000"}{"_id": "37397_lidl_pickup", "geo_point": {"postal_code": "59024", "city": "Cavarzano", "long": "-114.225556", "lat": "-60.8792235", "address": "Piazza Gianluigi 5", "state_code": "PO", "country_code": "IT"}, "last_updated": "2023-05-19T15:45:59.361000", "market": "lidl", "meta": null, "name": "lidl - Cavarzano - Piazza Gianluigi 5", "scrape_parameters": {"_id": "37397_lidl_pickup", "store_id": 37397}, "service": "pickup", "store_id": 37397, "last_scraped": "2023-05-19T15:46:02.262000"}{"_id": "72419_lidl_pickup", "geo_point": {"postal_code": "61121", "city": "Pesaro", "long": "159.230945", "lat": "-12.6282975", "address": "Rotonda Lolita 7", "state_code": "PU", "country_code": "IT"}, "last_updated": "2023-05-19T15:45:59.361000", "market": "lidl", "meta": null, "name": "lidl - Pesaro - Rotonda Lolita 7", "scrape_parameters": {"_id": "72419_lidl_pickup", "store_id": 72419}, "service": "pickup", "store_id": 72419, "last_scraped": "2023-05-19T15:46:02.326000"}{"_id": "8426_lidl_pickup", "geo_point": {"postal_code": "20831", "city": "Seregno", "long": "-26.327452", "lat": "-12.8031165", "address": "Rotonda Ricolfi 453", "state_code": "MB", "country_code": "IT"}, "last_updated": "2023-05-19T15:45:59.361000", "market": "lidl", "meta": null, "name": "lidl - Seregno - Rotonda Ricolfi 453", "scrape_parameters": {"_id": "8426_lidl_pickup", "store_id": 8426}, "service": "pickup", "store_id": 8426, "last_scraped": "2023-05-19T15:46:02.389000"}{"_id": "24942_lidl_pickup", "geo_point": {"postal_code": "28846", "city": "Seppiana", "long": "-86.412574", "lat": "-16.694243", "address": "Vicolo Ciampi 261", "state_code": "VB", "country_code": "IT"}, "last_updated": "2023-05-19T15:45:59.361000", "market": "lidl", "meta": null, "name": "lidl - Seppiana - Vicolo Ciampi 261", "scrape_parameters": {"_id": "24942_lidl_pickup", "store_id": 24942}, "service": "pickup", "store_id": 24942, "last_scraped": "2023-05-19T15:46:02.454000"}{"_id": "48249_lidl_pickup", "geo_point": {"postal_code": "15019", "city": "Strevi", "long": "-25.600650", "lat": "20.812218", "address": "Contrada Ammaniti 95", "state_code": "AL", "country_code": "IT"}, "last_updated": "2023-05-19T15:45:59.361000", "market": "lidl", "meta": null, "name": "lidl - Strevi - Contrada Ammaniti 95", "scrape_parameters": {"_id": "48249_lidl_pickup", "store_id": 48249}, "service": "pickup", "store_id": 48249, "last_scraped": "2023-05-19T15:46:02.520000"}{"_id": "5364_lidl_delivery", "geo_point": {"postal_code": "19134", "city": "Laspezia", "long": "-143.962173", "lat": "-59.161712", "address": "Piazza Cuda 3", "state_code": "SP", "country_code": "IT"}, "last_updated": "2023-05-19T15:45:59.361000", "market": "lidl", "meta": null, "name": "lidl - Laspezia - Piazza Cuda 3", "scrape_parameters": {"_id": "5364_lidl_delivery", "store_id": 5364}, "service": "delivery", "store_id": 5364, "last_scraped": "2023-05-19T15:46:02.598000"}{"_id": "87000_lidl_delivery", "geo_point": {"postal_code": "50067", "city": "Rignano Sull'Arno", "long": "90.583885", "lat": "36.166594", "address": "Contrada Saragat 30", "state_code": "FI", "country_code": "IT"}, "last_updated": "2023-05-19T15:45:59.361000", "market": "lidl", "meta": null, "name": "lidl - Rignano Sull'Arno - Contrada Saragat 30", "scrape_parameters": {"_id": "87000_lidl_delivery", "store_id": 87000}, "service": "delivery", "store_id": 87000, "last_scraped": "2023-05-19T15:46:02.671000"}{"_id": "28340_lidl_delivery", "geo_point": {"postal_code": "47835", "city": "Santa Maria Del Monte", "long": "48.425841", "lat": "12.3450845", "address": "Viale Respighi 1", "state_code": "RN", "country_code": "IT"}, "last_updated": "2023-05-19T15:45:59.361000", "market": "lidl", "meta": null, "name": "lidl - Santa Maria Del Monte - Viale Respighi 1", "scrape_parameters": {"_id": "28340_lidl_delivery", "store_id": 28340}, "service": "delivery", "store_id": 28340, "last_scraped": "2023-05-19T15:46:02.746000"}{"_id": "9038_lidl_delivery", "geo_point": {"postal_code": "25123", "city": "Brescia", "long": "37.822429", "lat": "-53.759198", "address": "Strada Soprano 51", "state_code": "BS", "country_code": "IT"}, "last_updated": "2023-05-19T15:45:59.361000", "market": "lidl", "meta": null, "name": "lidl - Brescia - Strada Soprano 51", "scrape_parameters": {"_id": "9038_lidl_delivery", "store_id": 9038}, "service": "delivery", "store_id": 9038, "last_scraped": "2023-05-19T15:46:02.828000"}{"_id": "15809_lidl_pickup", "geo_point": {"postal_code": "00195", "city": "Roma", "long": "50.330458", "lat": "66.236279", "address": "Vicolo Camicione 95", "state_code": "RM", "country_code": "IT"}, "last_updated": "2023-05-19T15:45:59.361000", "market": "lidl", "meta": null, "name": "lidl - Roma - Vicolo Camicione 95", "scrape_parameters": {"_id": "15809_lidl_pickup", "store_id": 15809}, "service": "pickup", "store_id": 15809, "last_scraped": "2023-05-19T15:46:02.903000"}{"_id": "31831_lidl_pickup", "geo_point": {"postal_code": "00161", "city": "Roma", "long": "-117.448271", "lat": "84.697074", "address": "Via Ciampi 35", "state_code": "RM", "country_code": "IT"}, "last_updated": "2023-05-19T15:45:59.361000", "market": "lidl", "meta": null, "name": "lidl - Roma - Via Ciampi 35", "scrape_parameters": {"_id": "31831_lidl_pickup", "store_id": 31831}, "service": "pickup", "store_id": 31831, "last_scraped": "2023-05-19T15:46:02.975000"}{"_id": "16077_lidl_delivery", "geo_point": {"postal_code": "92022", "city": "Cammarata", "long": "118.438150", "lat": "-88.5420935", "address": "Rotonda Salvo 95", "state_code": "AG", "country_code": "IT"}, "last_updated": "2023-05-19T15:45:59.361000", "market": "lidl", "meta": null, "name": "lidl - Cammarata - Rotonda Salvo 95", "scrape_parameters": {"_id": "16077_lidl_delivery", "store_id": 16077}, "service": "delivery", "store_id": 16077, "last_scraped": "2023-05-19T15:46:03.055000"}{"_id": "30461_lidl_pickup", "geo_point": {"postal_code": "35124", "city": "Padova", "long": "23.759997", "lat": "47.380486", "address": "Via Gioacchino 861", "state_code": "PD", "country_code": "IT"}, "last_updated": "2023-05-19T15:45:59.361000", "market": "lidl", "meta": null, "name": "lidl - Padova - Via Gioacchino 861", "scrape_parameters": {"_id": "30461_lidl_pickup", "store_id": 30461}, "service": "pickup", "store_id": 30461, "last_scraped": "2023-05-19T15:46:03.130000"}{"_id": "75818_lidl_delivery", "geo_point": {"postal_code": "10034", "city": "Castelrosso", "long": "-74.755991", "lat": "-27.4614435", "address": "Stretto Sermonti 1", "state_code": "TO", "country_code": "IT"}, "last_updated": "2023-05-19T15:45:59.361000", "market": "lidl", "meta": null, "name": "lidl - Castelrosso - Stretto Sermonti 1", "scrape_parameters": {"_id": "75818_lidl_delivery", "store_id": 75818}, "service": "delivery", "store_id": 75818, "last_scraped": "2023-05-19T15:46:03.203000"}{"_id": "7148_lidl_pickup", "geo_point": {"postal_code": "36021", "city": "Barbarano Vicentino", "long": "-108.971685", "lat": "58.489918", "address": "Strada Orazio 95", "state_code": "VI", "country_code": "IT"}, "last_updated": "2023-05-19T15:45:59.361000", "market": "lidl", "meta": null, "name": "lidl - Barbarano Vicentino - Strada Orazio 95", "scrape_parameters": {"_id": "7148_lidl_pickup", "store_id": 7148}, "service": "pickup", "store_id": 7148, "last_scraped": "2023-05-19T15:46:03.276000"}{"_id": "45864_lidl_delivery", "geo_point": {"postal_code": "30141", "city": "Venezia", "long": "161.760811", "lat": "-53.633663", "address": "Borgo Melina 50", "state_code": "VE", "country_code": "IT"}, "last_updated": "2023-05-19T15:45:59.361000", "market": "lidl", "meta": null, "name": "lidl - Venezia - Borgo Melina 50", "scrape_parameters": {"_id": "45864_lidl_delivery", "store_id": 45864}, "service": "delivery", "store_id": 45864, "last_scraped": "2023-05-19T15:46:03.351000"}{"_id": "71490_lidl_delivery", "geo_point": {"postal_code": "40027", "city": "Bubano", "long": "-110.984182", "lat": "32.891195", "address": "Piazza Maccanelli 98", "state_code": "BO", "country_code": "IT"}, "last_updated": "2023-05-19T15:45:59.361000", "market": "lidl", "meta": null, "name": "lidl - Bubano - Piazza Maccanelli 98", "scrape_parameters": {"_id": "71490_lidl_delivery", "store_id": 71490}, "service": "delivery", "store_id": 71490, "last_scraped": "2023-05-19T15:46:03.425000"}{"_id": "19101_lidl_delivery", "geo_point": {"postal_code": "63811", "city": "La Luce", "long": "143.843857", "lat": "7.021489", "address": "Piazza Capuana 14", "state_code": "FM", "country_code": "IT"}, "last_updated": "2023-05-19T15:45:59.361000", "market": "lidl", "meta": null, "name": "lidl - La Luce - Piazza Capuana 14", "scrape_parameters": {"_id": "19101_lidl_delivery", "store_id": 19101}, "service": "delivery", "store_id": 19101, "last_scraped": "2023-05-19T15:46:03.495000"}{"_id": "24120_lidl_pickup", "geo_point": {"postal_code": "25080", "city": "Prevalle", "long": "77.980550", "lat": "-1.8211135", "address": "Viale Sollima 714", "state_code": "BS", "country_code": "IT"}, "last_updated": "2023-05-19T15:45:59.361000", "market": "lidl", "meta": null, "name": "lidl - Prevalle - Viale Sollima 714", "scrape_parameters": {"_id": "24120_lidl_pickup", "store_id": 24120}, "service": "pickup", "store_id": 24120, "last_scraped": "2023-05-19T15:46:03.570000"}{"_id": "69371_lidl_delivery", "geo_point": {"postal_code": "26011", "city": "Casalbuttano", "long": "-62.658399", "lat": "33.256162", "address": "Canale Brambilla 519", "state_code": "CR", "country_code": "IT"}, "last_updated": "2023-05-19T15:45:59.361000", "market": "lidl", "meta": null, "name": "lidl - Casalbuttano - Canale Brambilla 519", "scrape_parameters": {"_id": "69371_lidl_delivery", "store_id": 69371}, "service": "delivery", "store_id": 69371, "last_scraped": "2023-05-19T15:46:03.645000"}{"_id": "4658_lidl_pickup", "geo_point": {"postal_code": "28893", "city": "Loreglia", "long": "-131.422095", "lat": "37.842205", "address": "Canale Annunziata 8", "state_code": "VB", "country_code": "IT"}, "last_updated": "2023-05-19T15:45:59.361000", "market": "lidl", "meta": null, "name": "lidl - Loreglia - Canale Annunziata 8", "scrape_parameters": {"_id": "4658_lidl_pickup", "store_id": 4658}, "service": "pickup", "store_id": 4658, "last_scraped": "2023-05-19T15:46:03.721000"}{"_id": "68772_lidl_pickup", "geo_point": {"postal_code": "75100", "city": "La Martella", "long": "-108.684166", "lat": "75.4388125", "address": "Rotonda Disdero 189", "state_code": "MT", "country_code": "IT"}, "last_updated": "2023-05-19T15:45:59.361000", "market": "lidl", "meta": null, "name": "lidl - La Martella - Rotonda Disdero 189", "scrape_parameters": {"_id": "68772_lidl_pickup", "store_id": 68772}, "service": "pickup", "store_id": 68772, "last_scraped": "2023-05-19T15:46:03.795000"}{"_id": "72692_lidl_pickup", "geo_point": {"postal_code": "80022", "city": "Arzano", "long": "154.677345", "lat": "64.903193", "address": "Contrada Aria 24", "state_code": "NA", "country_code": "IT"}, "last_updated": "2023-05-19T15:45:59.361000", "market": "lidl", "meta": null, "name": "lidl - Arzano - Contrada Aria 24", "scrape_parameters": {"_id": "72692_lidl_pickup", "store_id": 72692}, "service": "pickup", "store_id": 72692, "last_scraped": "2023-05-19T15:46:03.873000"}{"_id": "73585_lidl_delivery", "geo_point": {"postal_code": "87051", "city": "Aprigliano", "long": "-68.632789", "lat": "-22.813274", "address": "Viale Bragaglia 326", "state_code": "CS", "country_code": "IT"}, "last_updated": "2023-05-19T15:45:59.361000", "market": "lidl", "meta": null, "name": "lidl - Aprigliano - Viale Bragaglia 326", "scrape_parameters": {"_id": "73585_lidl_delivery", "store_id": 73585}, "service": "delivery", "store_id": 73585, "last_scraped": "2023-05-19T15:46:03.956000"}{"_id": "20299_lidl_delivery", "geo_point": {"postal_code": "37049", "city": "Spinimbecco", "long": "44.650026", "lat": "12.267106", "address": "Strada Bacosi 21", "state_code": "VR", "country_code": "IT"}, "last_updated": "2023-05-19T15:45:59.361000", "market": "lidl", "meta": null, "name": "lidl - Spinimbecco - Strada Bacosi 21", "scrape_parameters": {"_id": "20299_lidl_delivery", "store_id": 20299}, "service": "delivery", "store_id": 20299, "last_scraped": "2023-05-19T15:46:04.045000"}{"_id": "8808_lidl_delivery", "geo_point": {"postal_code": "84131", "city": "Mercatello Di Salerno", "long": "-157.703958", "lat": "32.005149", "address": "Rotonda Golgi 91", "state_code": "SA", "country_code": "IT"}, "last_updated": "2023-05-19T15:45:59.361000", "market": "lidl", "meta": null, "name": "lidl - Mercatello Di Salerno - Rotonda Golgi 91", "scrape_parameters": {"_id": "8808_lidl_delivery", "store_id": 8808}, "service": "delivery", "store_id": 8808, "last_scraped": "2023-05-19T15:46:04.129000"}{"_id": "82338_lidl_delivery", "geo_point": {"postal_code": "23845", "city": "Costa Masnaga", "long": "94.224705", "lat": "-30.989955", "address": "Contrada Marcella 30", "state_code": "LC", "country_code": "IT"}, "last_updated": "2023-05-19T15:45:59.361000", "market": "lidl", "meta": null, "name": "lidl - Costa Masnaga - Contrada Marcella 30", "scrape_parameters": {"_id": "82338_lidl_delivery", "store_id": 82338}, "service": "delivery", "store_id": 82338, "last_scraped": "2023-05-19T15:46:04.214000"}{"_id": "78560_lidl_pickup", "geo_point": {"postal_code": "19124", "city": "La Spezia", "long": "148.349510", "lat": "-67.3146195", "address": "Piazza Modiano 629", "state_code": "SP", "country_code": "IT"}, "last_updated": "2023-05-19T15:45:59.361000", "market": "lidl", "meta": null, "name": "lidl - La Spezia - Piazza Modiano 629", "scrape_parameters": {"_id": "78560_lidl_pickup", "store_id": 78560}, "service": "pickup", "store_id": 78560, "last_scraped": "2023-05-19T15:46:04.307000"}{"_id": "35161_pam_delivery", "geo_point": {"postal_code": "86042", "city": "Nuova Cliternia", "long": "-108.153225", "lat": "-49.458445", "address": "Canale Orsini 52", "state_code": "CB", "country_code": "IT"}, "last_updated": "2023-05-19T15:45:59.385000", "market": "pam", "meta": null, "name": "pam - Nuova Cliternia - Canale Orsini 52", "scrape_parameters": {"_id": "35161_pam_delivery", "store_id": 35161}, "service": "delivery", "store_id": 35161, "last_scraped": "2023-05-19T15:46:04.391000"}{"_id": "39928_pam_delivery", "geo_point": {"postal_code": "19038", "city": "San Lazzaro", "long": "29.314830", "lat": "19.5116085", "address": "Via Baccio 6", "state_code": "SP", "country_code": "IT"}, "last_updated": "2023-05-19T15:45:59.385000", "market": "pam", "meta": null, "name": "pam - San Lazzaro - Via Baccio 6", "scrape_parameters": {"_id": "39928_pam_delivery", "store_id": 39928}, "service": "delivery", "store_id": 39928, "last_scraped": "2023-05-19T15:46:04.476000"}{"_id": "89574_pam_delivery", "geo_point": {"postal_code": "70043", "city": "Monopoli", "long": "-174.900731", "lat": "-78.3743965", "address": "Stretto Nedda 1", "state_code": "BA", "country_code": "IT"}, "last_updated": "2023-05-19T15:45:59.385000", "market": "pam", "meta": null, "name": "pam - Monopoli - Stretto Nedda 1", "scrape_parameters": {"_id": "89574_pam_delivery", "store_id": 89574}, "service": "delivery", "store_id": 89574, "last_scraped": "2023-05-19T15:46:04.565000"}{"_id": "40782_pam_pickup", "geo_point": {"postal_code": "82036", "city": "Solopaca", "long": "-147.679165", "lat": "-31.9593405", "address": "Borgo Agnolo 21", "state_code": "BN", "country_code": "IT"}, "last_updated": "2023-05-19T15:45:59.385000", "market": "pam", "meta": null, "name": "pam - Solopaca - Borgo Agnolo 21", "scrape_parameters": {"_id": "40782_pam_pickup", "store_id": 40782}, "service": "pickup", "store_id": 40782, "last_scraped": "2023-05-19T15:46:04.647000"}{"_id": "24268_pam_pickup", "geo_point": {"postal_code": "89900", "city": "Vena", "long": "137.547667", "lat": "-83.871462", "address": "Incrocio Carlo 86", "state_code": "VV", "country_code": "IT"}, "last_updated": "2023-05-19T15:45:59.385000", "market": "pam", "meta": null, "name": "pam - Vena - Incrocio Carlo 86", "scrape_parameters": {"_id": "24268_pam_pickup", "store_id": 24268}, "service": "pickup", "store_id": 24268, "last_scraped": "2023-05-19T15:46:04.727000"}{"_id": "68654_pam_pickup", "geo_point": {"postal_code": "90021", "city": "Alia", "long": "176.236495", "lat": "47.4056705", "address": "Via Curatoli 94", "state_code": "PA", "country_code": "IT"}, "last_updated": "2023-05-19T15:45:59.385000", "market": "pam", "meta": null, "name": "pam - Alia - Via Curatoli 94", "scrape_parameters": {"_id": "68654_pam_pickup", "store_id": 68654}, "service": "pickup", "store_id": 68654, "last_scraped": "2023-05-19T15:46:04.806000"}{"_id": "71703_pam_delivery", "geo_point": {"postal_code": "26854", "city": "Muzza Sant'Angelo", "long": "96.953059", "lat": "89.9369255", "address": "Viale Civaschi 2", "state_code": "LO", "country_code": "IT"}, "last_updated": "2023-05-19T15:45:59.385000", "market": "pam", "meta": null, "name": "pam - Muzza Sant'Angelo - Viale Civaschi 2", "scrape_parameters": {"_id": "71703_pam_delivery", "store_id": 71703}, "service": "delivery", "store_id": 71703, "last_scraped": "2023-05-19T15:46:04.890000"}{"_id": "38796_pam_delivery", "geo_point": {"postal_code": "98144", "city": "Messina", "long": "-18.676519", "lat": "-58.1943095", "address": "Viale Speri 24", "state_code": "ME", "country_code": "IT"}, "last_updated": "2023-05-19T15:45:59.385000", "market": "pam", "meta": null, "name": "pam - Messina - Viale Speri 24", "scrape_parameters": {"_id": "38796_pam_delivery", "store_id": 38796}, "service": "delivery", "store_id": 38796, "last_scraped": "2023-05-19T15:46:04.980000"}{"_id": "69782_pam_pickup", "geo_point": {"postal_code": "59100", "city": "Maliseti", "long": "-48.669225", "lat": "-40.8484985", "address": "Contrada Visintini 70", "state_code": "PO", "country_code": "IT"}, "last_updated": "2023-05-19T15:45:59.385000", "market": "pam", "meta": null, "name": "pam - Maliseti - Contrada Visintini 70", "scrape_parameters": {"_id": "69782_pam_pickup", "store_id": 69782}, "service": "pickup", "store_id": 69782, "last_scraped": "2023-05-19T15:46:05.068000"}{"_id": "33972_pam_pickup", "geo_point": {"postal_code": "82020", "city": "Fragneto L'Abate", "long": "-118.842641", "lat": "-50.1822355", "address": "Rotonda Murri 30", "state_code": "BN", "country_code": "IT"}, "last_updated": "2023-05-19T15:45:59.385000", "market": "pam", "meta": null, "name": "pam - Fragneto L'Abate - Rotonda Murri 30", "scrape_parameters": {"_id": "33972_pam_pickup", "store_id": 33972}, "service": "pickup", "store_id": 33972, "last_scraped": "2023-05-19T15:46:05.156000"}{"_id": "94422_pam_delivery", "geo_point": {"postal_code": "06040", "city": "Sant'Anatolia Di Narco", "long": "51.332579", "lat": "-61.971589", "address": "Piazza Salgari 746", "state_code": "PG", "country_code": "IT"}, "last_updated": "2023-05-19T15:45:59.385000", "market": "pam", "meta": null, "name": "pam - Sant'Anatolia Di Narco - Piazza Salgari 746", "scrape_parameters": {"_id": "94422_pam_delivery", "store_id": 94422}, "service": "delivery", "store_id": 94422, "last_scraped": "2023-05-19T15:46:05.241000"}{"_id": "95888_pam_pickup", "geo_point": {"postal_code": "27035", "city": "Mede", "long": "-56.351004", "lat": "74.931859", "address": "Incrocio Teresa 6", "state_code": "PV", "country_code": "IT"}, "last_updated": "2023-05-19T15:45:59.385000", "market": "pam", "meta": null, "name": "pam - Mede - Incrocio Teresa 6", "scrape_parameters": {"_id": "95888_pam_pickup", "store_id": 95888}, "service": "pickup", "store_id": 95888, "last_scraped": "2023-05-19T15:46:05.336000"}{"_id": "72971_pam_pickup", "geo_point": {"postal_code": "16124", "city": "Genova", "long": "-172.195533", "lat": "-7.4324135", "address": "Canale Roberto 758", "state_code": "GE", "country_code": "IT"}, "last_updated": "2023-05-19T15:45:59.385000", "market": "pam", "meta": null, "name": "pam - Genova - Canale Roberto 758", "scrape_parameters": {"_id": "72971_pam_pickup", "store_id": 72971}, "service": "pickup", "store_id": 72971, "last_scraped": "2023-05-19T15:46:05.428000"}{"_id": "72202_pam_pickup", "geo_point": {"postal_code": "18013", "city": "Diano Marina", "long": "-87.956265", "lat": "4.3381375", "address": "Via Luciano 70", "state_code": "IM", "country_code": "IT"}, "last_updated": "2023-05-19T15:45:59.385000", "market": "pam", "meta": null, "name": "pam - Diano Marina - Via Luciano 70", "scrape_parameters": {"_id": "72202_pam_pickup", "store_id": 72202}, "service": "pickup", "store_id": 72202, "last_scraped": "2023-05-19T15:46:05.512000"}{"_id": "9484_pam_delivery", "geo_point": {"postal_code": "12046", "city": "San Rocco Monta'", "long": "-118.192899", "lat": "12.3323085", "address": "Piazza Carullo 7", "state_code": "CN", "country_code": "IT"}, "last_updated": "2023-05-19T15:45:59.385000", "market": "pam", "meta": null, "name": "pam - San Rocco Monta' - Piazza Carullo 7", "scrape_parameters": {"_id": "9484_pam_delivery", "store_id": 9484}, "service": "delivery", "store_id": 9484, "last_scraped": "2023-05-19T15:46:05.602000"}{"_id": "24993_pam_delivery", "geo_point": {"postal_code": "13823", "city": "Strona", "long": "91.832859", "lat": "42.867623", "address": "Strada Pulci 270", "state_code": "BI", "country_code": "IT"}, "last_updated": "2023-05-19T15:45:59.385000", "market": "pam", "meta": null, "name": "pam - Strona - Strada Pulci 270", "scrape_parameters": {"_id": "24993_pam_delivery", "store_id": 24993}, "service": "delivery", "store_id": 24993, "last_scraped": "2023-05-19T15:46:05.690000"}{"_id": "83640_pam_delivery", "geo_point": {"postal_code": "88064", "city": "Chiaravalle Centrale", "long": "20.400345", "lat": "57.2380775", "address": "Stretto Pertini 7", "state_code": "CZ", "country_code": "IT"}, "last_updated": "2023-05-19T15:45:59.385000", "market": "pam", "meta": null, "name": "pam - Chiaravalle Centrale - Stretto Pertini 7", "scrape_parameters": {"_id": "83640_pam_delivery", "store_id": 83640}, "service": "delivery", "store_id": 83640, "last_scraped": "2023-05-19T15:46:05.777000"}{"_id": "52650_pam_pickup", "geo_point": {"postal_code": "47867", "city": "Talamello", "long": "-112.656952", "lat": "-19.7784605", "address": "Contrada Giuliano 30", "state_code": "RN", "country_code": "IT"}, "last_updated": "2023-05-19T15:45:59.385000", "market": "pam", "meta": null, "name": "pam - Talamello - Contrada Giuliano 30", "scrape_parameters": {"_id": "52650_pam_pickup", "store_id": 52650}, "service": "pickup", "store_id": 52650, "last_scraped": "2023-05-19T15:46:05.869000"}{"_id": "56579_pam_delivery", "geo_point": {"postal_code": "38094", "city": "Iavre'", "long": "-160.062665", "lat": "63.2484195", "address": "Piazza Scialpi 774", "state_code": "TN", "country_code": "IT"}, "last_updated": "2023-05-19T15:45:59.385000", "market": "pam", "meta": null, "name": "pam - Iavre' - Piazza Scialpi 774", "scrape_parameters": {"_id": "56579_pam_delivery", "store_id": 56579}, "service": "delivery", "store_id": 56579, "last_scraped": "2023-05-19T15:46:05.966000"}{"_id": "85966_pam_pickup", "geo_point": {"postal_code": "19030", "city": "Fiumaretta", "long": "-28.518787", "lat": "24.4881285", "address": "Contrada Bottaro 288", "state_code": "SP", "country_code": "IT"}, "last_updated": "2023-05-19T15:45:59.385000", "market": "pam", "meta": null, "name": "pam - Fiumaretta - Contrada Bottaro 288", "scrape_parameters": {"_id": "85966_pam_pickup", "store_id": 85966}, "service": "pickup", "store_id": 85966, "last_scraped": "2023-05-19T15:46:06.062000"}{"_id": "45436_pam_pickup", "geo_point": {"postal_code": "73054", "city": "Presicce", "long": "19.520305", "lat": "-71.8136795", "address": "Canale Barcaccia 0", "state_code": "LE", "country_code": "IT"}, "last_updated": "2023-05-19T15:45:59.385000", "market": "pam", "meta": null, "name": "pam - Presicce - Canale Barcaccia 0", "scrape_parameters": {"_id": "45436_pam_pickup", "store_id": 45436}, "service": "pickup", "store_id": 45436, "last_scraped": "2023-05-19T15:46:06.154000"}{"_id": "50671_pam_pickup", "geo_point": {"postal_code": "31031", "city": "Caerano Di San Marco", "long": "-61.403712", "lat": "-69.621836", "address": "Piazza Ivan 0", "state_code": "TV", "country_code": "IT"}, "last_updated": "2023-05-19T15:45:59.385000", "market": "pam", "meta": null, "name": "pam - Caerano Di San Marco - Piazza Ivan 0", "scrape_parameters": {"_id": "50671_pam_pickup", "store_id": 50671}, "service": "pickup", "store_id": 50671, "last_scraped": "2023-05-19T15:46:06.250000"}{"_id": "39081_pam_delivery", "geo_point": {"postal_code": "20086", "city": "Motta Visconti", "long": "117.229496", "lat": "-19.1666635", "address": "Contrada Gregori 62", "state_code": "MI", "country_code": "IT"}, "last_updated": "2023-05-19T15:45:59.385000", "market": "pam", "meta": null, "name": "pam - Motta Visconti - Contrada Gregori 62", "scrape_parameters": {"_id": "39081_pam_delivery", "store_id": 39081}, "service": "delivery", "store_id": 39081, "last_scraped": "2023-05-19T15:46:06.352000"}{"_id": "76969_pam_delivery", "geo_point": {"postal_code": "20084", "city": "Lacchiarella", "long": "131.323075", "lat": "87.948855", "address": "Contrada Gottardi 5", "state_code": "MI", "country_code": "IT"}, "last_updated": "2023-05-19T15:45:59.385000", "market": "pam", "meta": null, "name": "pam - Lacchiarella - Contrada Gottardi 5", "scrape_parameters": {"_id": "76969_pam_delivery", "store_id": 76969}, "service": "delivery", "store_id": 76969, "last_scraped": "2023-05-19T15:46:06.446000"}{"_id": "56693_pam_pickup", "geo_point": {"postal_code": "20822", "city": "Seveso", "long": "45.069770", "lat": "21.9720655", "address": "Borgo Maggioli 73", "state_code": "MB", "country_code": "IT"}, "last_updated": "2023-05-19T15:45:59.385000", "market": "pam", "meta": null, "name": "pam - Seveso - Borgo Maggioli 73", "scrape_parameters": {"_id": "56693_pam_pickup", "store_id": 56693}, "service": "pickup", "store_id": 56693, "last_scraped": "2023-05-19T15:46:06.544000"}{"_id": "49144_pam_delivery", "geo_point": {"postal_code": "97011", "city": "Acate", "long": "45.935480", "lat": "44.8832825", "address": "Contrada Serena 3", "state_code": "RG", "country_code": "IT"}, "last_updated": "2023-05-19T15:45:59.385000", "market": "pam", "meta": null, "name": "pam - Acate - Contrada Serena 3", "scrape_parameters": {"_id": "49144_pam_delivery", "store_id": 49144}, "service": "delivery", "store_id": 49144, "last_scraped": "2023-05-19T15:46:06.638000"}{"_id": "58036_pam_delivery", "geo_point": {"postal_code": "09123", "city": "Cagliari", "long": "-94.970501", "lat": "-67.1863235", "address": "Incrocio Lattuada 45", "state_code": "CA", "country_code": "IT"}, "last_updated": "2023-05-19T15:45:59.385000", "market": "pam", "meta": null, "name": "pam - Cagliari - Incrocio Lattuada 45", "scrape_parameters": {"_id": "58036_pam_delivery", "store_id": 58036}, "service": "delivery", "store_id": 58036, "last_scraped": "2023-05-19T15:46:06.729000"}{"_id": "58471_pam_pickup", "geo_point": {"postal_code": "19028", "city": "Varese Ligure", "long": "55.574703", "lat": "-50.145676", "address": "Incrocio Camuccini 939", "state_code": "SP", "country_code": "IT"}, "last_updated": "2023-05-19T15:45:59.385000", "market": "pam", "meta": null, "name": "pam - Varese Ligure - Incrocio Camuccini 939", "scrape_parameters": {"_id": "58471_pam_pickup", "store_id": 58471}, "service": "pickup", "store_id": 58471, "last_scraped": "2023-05-19T15:46:06.821000"}{"_id": "27606_pam_delivery", "geo_point": {"postal_code": "38089", "city": "Storo", "long": "81.016394", "lat": "50.574751", "address": "Strada Lercari 4", "state_code": "TN", "country_code": "IT"}, "last_updated": "2023-05-19T15:45:59.385000", "market": "pam", "meta": null, "name": "pam - Storo - Strada Lercari 4", "scrape_parameters": {"_id": "27606_pam_delivery", "store_id": 27606}, "service": "delivery", "store_id": 27606, "last_scraped": "2023-05-19T15:46:06.917000"}{"_id": "87945_pam_pickup", "geo_point": {"postal_code": "70122", "city": "Bari", "long": "-111.794598", "lat": "10.395701", "address": "Rotonda Luciana 6", "state_code": "BA", "country_code": "IT"}, "last_updated": "2023-05-19T15:45:59.385000", "market": "pam", "meta": null, "name": "pam - Bari - Rotonda Luciana 6", "scrape_parameters": {"_id": "87945_pam_pickup", "store_id": 87945}, "service": "pickup", "store_id": 87945, "last_scraped": "2023-05-19T15:46:07.024000"}{"_id": "73174_pam_pickup", "geo_point": {"postal_code": "98061", "city": "Brolo", "long": "-136.116512", "lat": "-62.264102", "address": "Via Leopoldo 81", "state_code": "ME", "country_code": "IT"}, "last_updated": "2023-05-19T15:45:59.385000", "market": "pam", "meta": null, "name": "pam - Brolo - Via Leopoldo 81", "scrape_parameters": {"_id": "73174_pam_pickup", "store_id": 73174}, "service": "pickup", "store_id": 73174, "last_scraped": "2023-05-19T15:46:07.126000"}{"_id": "81507_pam_pickup", "geo_point": {"postal_code": "98042", "city": "Pace Del Mela", "long": "167.681911", "lat": "81.8624195", "address": "Vicolo Pasquale 87", "state_code": "ME", "country_code": "IT"}, "last_updated": "2023-05-19T15:45:59.385000", "market": "pam", "meta": null, "name": "pam - Pace Del Mela - Vicolo Pasquale 87", "scrape_parameters": {"_id": "81507_pam_pickup", "store_id": 81507}, "service": "pickup", "store_id": 81507, "last_scraped": "2023-05-19T15:46:07.225000"}{"_id": "7181_pam_pickup", "geo_point": {"postal_code": "20068", "city": "Linate", "long": "-66.213462", "lat": "46.574404", "address": "Via Rolando 72", "state_code": "MI", "country_code": "IT"}, "last_updated": "2023-05-19T15:45:59.385000", "market": "pam", "meta": null, "name": "pam - Linate - Via Rolando 72", "scrape_parameters": {"_id": "7181_pam_pickup", "store_id": 7181}, "service": "pickup", "store_id": 7181, "last_scraped": "2023-05-19T15:46:07.331000"}{"_id": "13837_pam_delivery", "geo_point": {"postal_code": "46030", "city": "Pomponesco", "long": "-174.333270", "lat": "-43.1901465", "address": "Borgo Condoleo 578", "state_code": "MN", "country_code": "IT"}, "last_updated": "2023-05-19T15:45:59.385000", "market": "pam", "meta": null, "name": "pam - Pomponesco - Borgo Condoleo 578", "scrape_parameters": {"_id": "13837_pam_delivery", "store_id": 13837}, "service": "delivery", "store_id": 13837, "last_scraped": "2023-05-19T15:46:07.433000"}{"_id": "18795_pam_delivery", "geo_point": {"postal_code": "50125", "city": "Poggio Imperiale", "long": "132.732758", "lat": "-19.781851", "address": "Canale Raimondi 18", "state_code": "FI", "country_code": "IT"}, "last_updated": "2023-05-19T15:45:59.385000", "market": "pam", "meta": null, "name": "pam - Poggio Imperiale - Canale Raimondi 18", "scrape_parameters": {"_id": "18795_pam_delivery", "store_id": 18795}, "service": "delivery", "store_id": 18795, "last_scraped": "2023-05-19T15:46:07.541000"}{"_id": "24882_pam_pickup", "geo_point": {"postal_code": "52018", "city": "Strada", "long": "156.878670", "lat": "-88.654954", "address": "Viale Benvenuto 68", "state_code": "AR", "country_code": "IT"}, "last_updated": "2023-05-19T15:45:59.385000", "market": "pam", "meta": null, "name": "pam - Strada - Viale Benvenuto 68", "scrape_parameters": {"_id": "24882_pam_pickup", "store_id": 24882}, "service": "pickup", "store_id": 24882, "last_scraped": "2023-05-19T15:46:07.654000"}{"_id": "96421_pam_pickup", "geo_point": {"postal_code": "31026", "city": "Montaner", "long": "-14.888374", "lat": "16.3531845", "address": "Stretto Manuel 84", "state_code": "TV", "country_code": "IT"}, "last_updated": "2023-05-19T15:45:59.385000", "market": "pam", "meta": null, "name": "pam - Montaner - Stretto Manuel 84", "scrape_parameters": {"_id": "96421_pam_pickup", "store_id": 96421}, "service": "pickup", "store_id": 96421, "last_scraped": "2023-05-19T15:46:07.770000"}{"_id": "63989_pam_delivery", "geo_point": {"postal_code": "38083", "city": "Cimego", "long": "103.179849", "lat": "81.556325", "address": "Stretto Pometta 72", "state_code": "TN", "country_code": "IT"}, "last_updated": "2023-05-19T15:45:59.385000", "market": "pam", "meta": null, "name": "pam - Cimego - Stretto Pometta 72", "scrape_parameters": {"_id": "63989_pam_delivery", "store_id": 63989}, "service": "delivery", "store_id": 63989, "last_scraped": "2023-05-19T15:46:07.886000"}{"_id": "89604_pam_pickup", "geo_point": {"postal_code": "09013", "city": "Barbusi", "long": "-82.635905", "lat": "19.4628345", "address": "Viale Pareto 73", "state_code": "SU", "country_code": "IT"}, "last_updated": "2023-05-19T15:45:59.385000", "market": "pam", "meta": null, "name": "pam - Barbusi - Viale Pareto 73", "scrape_parameters": {"_id": "89604_pam_pickup", "store_id": 89604}, "service": "pickup", "store_id": 89604, "last_scraped": "2023-05-19T15:46:08.005000"}{"_id": "88589_pam_pickup", "geo_point": {"postal_code": "34078", "city": "Poggio Terzarmata", "long": "24.531259", "lat": "-37.1836075", "address": "Rotonda Zoppetto 87", "state_code": "GO", "country_code": "IT"}, "last_updated": "2023-05-19T15:45:59.385000", "market": "pam", "meta": null, "name": "pam - Poggio Terzarmata - Rotonda Zoppetto 87", "scrape_parameters": {"_id": "88589_pam_pickup", "store_id": 88589}, "service": "pickup", "store_id": 88589, "last_scraped": "2023-05-19T15:46:08.124000"}{"_id": "13168_pam_delivery", "geo_point": {"postal_code": "09090", "city": "Baradili", "long": "-78.906892", "lat": "25.887183", "address": "Strada Rosina 49", "state_code": "OR", "country_code": "IT"}, "last_updated": "2023-05-19T15:45:59.385000", "market": "pam", "meta": null, "name": "pam - Baradili - Strada Rosina 49", "scrape_parameters": {"_id": "13168_pam_delivery", "store_id": 13168}, "service": "delivery", "store_id": 13168, "last_scraped": "2023-05-19T15:46:08.228000"}{"_id": "37540_pam_pickup", "geo_point": {"postal_code": "40019", "city": "Sant'Agata Bolognese", "long": "-145.309241", "lat": "70.195793", "address": "Stretto Natalia 19", "state_code": "BO", "country_code": "IT"}, "last_updated": "2023-05-19T15:45:59.385000", "market": "pam", "meta": null, "name": "pam - Sant'Agata Bolognese - Stretto Natalia 19", "scrape_parameters": {"_id": "37540_pam_pickup", "store_id": 37540}, "service": "pickup", "store_id": 37540, "last_scraped": "2023-05-19T15:46:08.342000"}{"_id": "47469_pam_delivery", "geo_point": {"postal_code": "20123", "city": "Milano", "long": "-48.653077", "lat": "55.663201", "address": "Via Ricolfi 86", "state_code": "MI", "country_code": "IT"}, "last_updated": "2023-05-19T15:45:59.385000", "market": "pam", "meta": null, "name": "pam - Milano - Via Ricolfi 86", "scrape_parameters": {"_id": "47469_pam_delivery", "store_id": 47469}, "service": "delivery", "store_id": 47469, "last_scraped": "2023-05-19T15:46:08.449000"}{"_id": "99517_pam_delivery", "geo_point": {"postal_code": "71037", "city": "Monte Sant'Angelo", "long": "136.928811", "lat": "41.515084", "address": "Incrocio Graziano 26", "state_code": "FG", "country_code": "IT"}, "last_updated": "2023-05-19T15:45:59.385000", "market": "pam", "meta": null, "name": "pam - Monte Sant'Angelo - Incrocio Graziano 26", "scrape_parameters": {"_id": "99517_pam_delivery", "store_id": 99517}, "service": "delivery", "store_id": 99517, "last_scraped": "2023-05-19T15:46:08.556000"}{"_id": "68615_pam_delivery", "geo_point": {"postal_code": "24014", "city": "Piazza Brembana", "long": "-59.596542", "lat": "-22.0856745", "address": "Incrocio Bettina 725", "state_code": "BG", "country_code": "IT"}, "last_updated": "2023-05-19T15:45:59.385000", "market": "pam", "meta": null, "name": "pam - Piazza Brembana - Incrocio Bettina 725", "scrape_parameters": {"_id": "68615_pam_delivery", "store_id": 68615}, "service": "delivery", "store_id": 68615, "last_scraped": "2023-05-19T15:46:08.737000"}{"_id": "20778_pam_pickup", "geo_point": {"postal_code": "00134", "city": "Divino Amore", "long": "177.423849", "lat": "-1.0637415", "address": "Via Gianna 51", "state_code": "RM", "country_code": "IT"}, "last_updated": "2023-05-19T15:45:59.385000", "market": "pam", "meta": null, "name": "pam - Divino Amore - Via Gianna 51", "scrape_parameters": {"_id": "20778_pam_pickup", "store_id": 20778}, "service": "pickup", "store_id": 20778, "last_scraped": "2023-05-19T15:46:08.846000"}{"_id": "35658_pam_delivery", "geo_point": {"postal_code": "88825", "city": "Savelli", "long": "-110.812104", "lat": "-61.830286", "address": "Rotonda Pierluigi 39", "state_code": "KR", "country_code": "IT"}, "last_updated": "2023-05-19T15:45:59.385000", "market": "pam", "meta": null, "name": "pam - Savelli - Rotonda Pierluigi 39", "scrape_parameters": {"_id": "35658_pam_delivery", "store_id": 35658}, "service": "delivery", "store_id": 35658, "last_scraped": "2023-05-19T15:46:08.955000"}{"_id": "42540_pam_delivery", "geo_point": {"postal_code": "39054", "city": "Wange", "long": "-75.995115", "lat": "6.2343875", "address": "Borgo Ivan 2", "state_code": "BZ", "country_code": "IT"}, "last_updated": "2023-05-19T15:45:59.385000", "market": "pam", "meta": null, "name": "pam - Wange - Borgo Ivan 2", "scrape_parameters": {"_id": "42540_pam_delivery", "store_id": 42540}, "service": "delivery", "store_id": 42540, "last_scraped": "2023-05-19T15:46:09.072000"}{"_id": "91546_pam_pickup", "geo_point": {"postal_code": "40010", "city": "Santa Maria In Duno", "long": "81.559575", "lat": "74.2678285", "address": "Contrada Coriolano 5", "state_code": "BO", "country_code": "IT"}, "last_updated": "2023-05-19T15:45:59.385000", "market": "pam", "meta": null, "name": "pam - Santa Maria In Duno - Contrada Coriolano 5", "scrape_parameters": {"_id": "91546_pam_pickup", "store_id": 91546}, "service": "pickup", "store_id": 91546, "last_scraped": "2023-05-19T15:46:09.205000"}{"_id": "25796_pam_delivery", "geo_point": {"postal_code": "38027", "city": "Terzolas", "long": "167.790509", "lat": "-31.6740215", "address": "Rotonda Calcedonio 36", "state_code": "TN", "country_code": "IT"}, "last_updated": "2023-05-19T15:45:59.385000", "market": "pam", "meta": null, "name": "pam - Terzolas - Rotonda Calcedonio 36", "scrape_parameters": {"_id": "25796_pam_delivery", "store_id": 25796}, "service": "delivery", "store_id": 25796, "last_scraped": "2023-05-19T15:46:09.338000"}